City_ID,City,Country,Lat,Lng,Max Temp,Humidity,Cloudiness,Wind Speed,Current Description
0,Cape Town,ZA,-33.9258,18.4232,59.11,69,1,7.34,clear sky
1,Chiredzi,ZW,-21.05,31.6667,89.83,27,5,7.4,clear sky
2,Conroe,US,30.3119,-95.456,71.37,92,40,6.06,scattered clouds
3,Carnarvon,AU,-24.8667,113.6333,78.87,61,0,16.11,clear sky
4,Vao,NC,-22.6667,167.4833,72.23,75,12,14.58,few clouds
5,Qaanaaq,GL,77.484,-69.3632,-2.63,59,0,7.43,clear sky
6,Lompoc,US,34.6391,-120.4579,60.48,88,1,4.61,clear sky
7,Bathsheba,BB,13.2167,-59.5167,81.21,74,20,18.41,few clouds
8,Ushuaia,AR,-54.8,-68.3,33.46,86,75,8.05,light snow
9,Tabou,CI,4.423,-7.3528,76.82,87,74,4.14,broken clouds
10,Clyde River,CA,70.4692,-68.5914,16.61,84,91,11.48,overcast clouds
11,Broome,US,42.2506,-75.833,43.36,87,90,0,mist
12,Zhuhai,CN,22.2769,113.5678,76.71,68,20,17.27,few clouds
13,Yatou,CN,37.15,122.3833,61.84,42,11,4.99,few clouds
14,Atuona,PF,-9.8,-139.0333,78.15,77,19,19.64,few clouds
15,Jamestown,US,42.097,-79.2353,44.29,96,90,3,overcast clouds
16,Upernavik,GL,72.7868,-56.1549,20.82,90,100,16.84,light snow
17,Puerto Madero,MX,14.7208,-92.4215,77.2,100,20,0,few clouds
18,East London,ZA,-33.0153,27.9116,60.22,61,43,13.02,scattered clouds
19,Kieta,PG,-6.2167,155.6333,83.43,75,20,5.28,light rain
20,Kibala,TD,9.1104,18.3463,73.33,85,93,2.62,overcast clouds
21,Kamenka,RU,51.3223,42.7678,38.44,78,7,8.79,clear sky
22,Kodiak,US,57.79,-152.4072,42.51,92,99,21.85,moderate rain
23,Nanortalik,GL,60.1432,-45.2371,35.04,66,23,22.21,few clouds
24,Honningsvag,NO,70.9821,25.9704,39.29,54,97,16.46,light rain
25,Umm Lajj,SA,25.0213,37.2685,77.94,59,0,8.21,clear sky
26,Kapaa,US,22.0752,-159.319,80.58,83,90,3,overcast clouds
27,Bethel,US,41.3712,-73.414,50.81,88,1,0,clear sky
28,Bengkulu,ID,-3.8004,102.2655,78.6,83,99,1.92,overcast clouds
29,Mataura,NZ,-46.1927,168.8643,56.03,87,99,3.89,overcast clouds
30,Castro,BR,-24.7911,-50.0119,59.13,96,100,10.56,moderate rain
31,Bandarbeyla,SO,9.4942,50.8122,80.19,66,63,5.75,broken clouds
32,Ramshir,IR,30.8946,49.4092,81.43,15,0,2.98,clear sky
33,Ilulissat,GL,69.2167,-51.1,23.02,74,40,14.97,scattered clouds
34,Itarema,BR,-2.9248,-39.9167,78.89,81,79,11.05,broken clouds
35,Hithadhoo,MV,-0.6,73.0833,83.12,73,88,13.76,overcast clouds
36,Vaini,TO,-21.2,-175.2,75.36,78,20,8.05,few clouds
37,Pudem,RU,58.3044,52.1675,37.99,89,96,5.75,moderate rain
38,Iqaluit,CA,63.7506,-68.5145,29.93,86,90,15.01,overcast clouds
39,San Patricio,US,28.017,-97.5169,80.46,75,3,7.78,clear sky
40,Tuktoyaktuk,CA,69.4541,-133.0374,23.31,95,56,3.65,broken clouds
41,Bredasdorp,ZA,-34.5322,20.0403,51.28,60,80,1.43,broken clouds
42,Binga,ZW,-17.6203,27.3414,83.46,38,83,3.06,broken clouds
43,Bluff,NZ,-46.6,168.3333,51.55,95,100,8.7,overcast clouds
44,Isla Mujeres,MX,21.2311,-86.731,78.85,81,74,10.87,broken clouds
45,Paamiut,GL,61.994,-49.6678,30.72,38,94,4.7,overcast clouds
46,Port Alfred,ZA,-33.5906,26.891,59.18,64,50,13.47,light rain
47,Punta Arenas,CL,-53.15,-70.9167,37.51,87,20,23.02,light rain
48,Kroya,ID,-7.6331,109.2461,86.9,64,54,8.39,broken clouds
49,Helong,CN,42.5397,128.9972,57.16,27,0,3.29,clear sky
50,Saint-Philippe,RE,-21.3585,55.7679,80.15,79,41,13.2,scattered clouds
51,Lagos,NG,6.5833,3.75,72.93,99,98,3.24,light rain
52,Pangkalanbuun,ID,-2.6833,111.6167,94.75,45,35,2.91,light rain
53,Rikitea,PF,-23.1203,-134.9692,75.02,78,100,18.19,overcast clouds
54,Barinas,VE,8.6226,-70.2075,74.8,83,52,4.99,broken clouds
55,Veraval,IN,20.9,70.3667,83.23,57,20,8.05,few clouds
56,Hilo,US,19.7297,-155.09,73.8,83,1,0,clear sky
57,Mar Del Plata,AR,-38.0023,-57.5575,46.87,81,1,1.99,clear sky
58,Albany,US,42.6001,-73.9662,46.8,82,54,1.99,broken clouds
59,Alice Springs,AU,-23.7,133.8833,80.15,24,29,17.27,scattered clouds
60,Kuruman,ZA,-27.4524,23.4325,48.99,50,0,20.76,clear sky
61,Malartic,CA,48.1335,-78.1328,30.74,91,82,4.52,broken clouds
62,Dikson,RU,73.5069,80.5464,8.11,86,100,16.75,overcast clouds
63,Gualeguaychu,AR,-33.0094,-58.5172,55.04,67,0,9.53,clear sky
64,Isangel,VU,-19.55,169.2667,80.71,78,75,9.22,broken clouds
65,Berdigestyakh,RU,62.0989,126.6992,35.15,76,99,13.02,overcast clouds
66,Kurakh,RU,41.5849,47.7831,50.86,53,0,0.87,clear sky
67,Saint George,US,37.1041,-113.5841,63.36,42,1,1.01,clear sky
68,Hermanus,ZA,-34.4187,19.2345,58.89,72,17,6.29,few clouds
69,Avarua,CK,-21.2078,-159.775,71.65,64,75,4.61,haze
70,Real,PH,14.6625,121.6047,81.91,94,100,10.94,moderate rain
71,Neiafu,TO,-18.65,-173.9833,75.88,73,75,8.05,broken clouds
72,Mahebourg,MU,-20.4081,57.7,79.25,73,40,8.05,scattered clouds
73,Saldanha,ZA,-33.0117,17.9442,57.13,71,0,9.42,clear sky
74,Butaritari,KI,3.0707,172.7902,81.25,70,36,4.18,scattered clouds
75,Merrill,US,45.1805,-89.6835,31.95,93,1,0,clear sky
76,Haverfordwest,GB,51.8017,-4.9691,57.16,87,100,7,overcast clouds
77,Kapit,MY,2.0167,112.9333,92.08,51,93,1.81,overcast clouds
78,Barrow,US,71.2906,-156.7887,30.22,80,90,16.11,overcast clouds
79,Byron Bay,AU,-28.65,153.6167,86.11,70,66,12.73,broken clouds
80,Muzhi,RU,65.3667,64.6667,28.71,76,10,16.67,clear sky
81,Puerto Ayora,EC,-0.7393,-90.3518,68.63,89,70,7.54,broken clouds
82,Havre-Saint-Pierre,CA,50.2334,-63.5986,44.96,100,90,5.75,overcast clouds
83,Pafos,CY,34.7667,32.4167,64.31,67,20,9.22,few clouds
84,Narsaq,GL,60.9167,-46.05,32.22,52,31,3.38,scattered clouds
85,Noumea,NC,-22.2763,166.4572,78.78,69,12,15.14,few clouds
86,Santa Cruz,BO,-17.8,-63.1667,74.28,68,100,14.52,very heavy rain
87,Yellowknife,CA,62.456,-114.3525,41.41,90,90,14.97,light rain
88,Busselton,AU,-33.65,115.3333,75.04,60,100,8.52,overcast clouds
89,Doiwala,IN,30.1833,78.1167,76.03,52,84,2.53,broken clouds
90,Tiksi,RU,71.6872,128.8694,4.3,93,100,10.74,overcast clouds
91,Erdenet,MN,49.0333,104.0833,44.53,34,42,4.97,scattered clouds
92,Eyl,SO,7.9803,49.8164,80.82,65,19,7.56,few clouds
93,Lebu,CL,-37.6167,-73.65,48.29,93,14,4.99,few clouds
94,Pontes E Lacerda,BR,-15.2261,-59.3353,79.65,63,29,4.27,scattered clouds
95,Vestmanna,FO,62.1564,-7.1664,45.52,100,90,11.5,overcast clouds
96,Suntar,RU,62.1444,117.6319,36.61,69,30,11.1,scattered clouds
97,Kahului,US,20.8947,-156.47,76.84,70,1,14.97,clear sky
98,Damietta,EG,31.4165,31.8133,69.33,61,0,3.78,clear sky
99,Cherskiy,RU,68.75,161.3,-9.9,100,80,4.97,broken clouds
100,El Silencio,VE,10.5,-66.9167,68.85,83,75,2.3,broken clouds
101,Iquitos,PE,-3.7481,-73.2472,73.65,96,43,1.92,scattered clouds
102,Esperance,AU,-33.8667,121.9,76.8,39,15,7.81,few clouds
103,Mount Gambier,AU,-37.8333,140.7667,55.04,55,88,10.29,overcast clouds
104,Baykit,RU,61.67,96.37,36.73,97,100,8.97,light rain
105,Olafsvik,IS,64.8945,-23.7142,45.1,83,100,11.88,overcast clouds
106,Belozerskoye,RU,55.8214,65.5842,46.54,83,90,8.86,overcast clouds
107,Constantine,DZ,36.365,6.6147,57.97,90,99,4.09,overcast clouds
108,Coquimbo,CL,-29.9533,-71.3436,53.33,87,0,5.75,clear sky
109,Jiaojiang,CN,28.6803,121.4428,60.31,85,100,6.73,overcast clouds
110,Avera,US,33.194,-82.5271,60.67,66,2,2.98,clear sky
111,Mangalam,IN,9.7667,78.6667,90.73,59,22,4.09,few clouds
112,Teacapan,MX,22.55,-105.75,78.87,84,2,3.71,clear sky
113,Malanje,AO,-9.5402,16.341,66.04,94,100,1.3,overcast clouds
114,New Norfolk,AU,-42.7826,147.0587,54.66,51,100,5.01,overcast clouds
115,Coihaique,CL,-45.5752,-72.0662,42.75,70,90,4.61,light rain
116,Kashan,IR,33.9831,51.4364,62.13,23,4,4.81,clear sky
117,Banda Aceh,ID,5.5577,95.3222,83.35,70,100,5.35,overcast clouds
118,Severo-Kurilsk,RU,50.6789,156.125,40.71,74,80,11.18,broken clouds
119,Aurad,IN,18.25,77.4333,79.54,54,64,3.09,broken clouds
120,Arica,CL,-18.475,-70.3042,55.63,71,0,0,clear sky
121,Port-Gentil,GA,-0.7193,8.7815,77.7,83,100,4.97,overcast clouds
122,Thompson,CA,55.7435,-97.8558,35.85,73,100,4.25,overcast clouds
123,Longyearbyen,SJ,78.2186,15.6401,17.44,73,0,4.61,clear sky
124,Lorengau,PG,-2.0226,147.2712,84.49,72,99,9.13,overcast clouds
125,Asau,RO,46.4333,26.4,39.76,80,80,2.35,light rain
126,Pouebo,NC,-20.4,164.5667,76.6,69,40,5.82,scattered clouds
127,Kruisfontein,ZA,-34.0033,24.7314,55.4,68,7,9.69,clear sky
128,Padang,ID,-0.9492,100.3543,84.25,80,83,6.67,broken clouds
129,Cayeli,TR,41.0923,40.7292,60.67,51,6,3.51,clear sky
130,Pevek,RU,69.7008,170.3133,8.55,92,100,4.21,overcast clouds
131,Vardo,NO,70.3705,31.1107,37.38,64,56,24.94,broken clouds
132,Waipawa,NZ,-41.4122,175.5153,59.63,73,98,4.16,overcast clouds
133,Tasiilaq,GL,65.6145,-37.6368,32.16,97,100,6.02,snow
134,Sines,PT,37.9562,-8.8698,55.29,80,2,1.01,clear sky
135,Lasa,IT,46.6166,10.7002,36.63,42,1,1.3,clear sky
136,Vestmannaeyjar,IS,63.4427,-20.2734,47.35,81,100,14.94,overcast clouds
137,Tandur,IN,17.2333,77.5833,81.36,56,76,4.25,broken clouds
138,Nargana,PA,9.4428,-78.5906,79.07,85,30,7.56,scattered clouds
139,Husavik,IS,66.0449,-17.3389,39.22,96,100,4.14,overcast clouds
140,Sabang,ID,5.8933,95.3214,81.84,73,91,4.68,overcast clouds
141,Moyale,KE,3.5167,39.0584,74.01,60,10,6.62,clear sky
142,Gweta,BW,-20.1833,25.2333,78.44,14,70,9.26,broken clouds
143,Georgetown,MY,5.4112,100.3354,82.33,85,20,5.75,few clouds
144,Hasaki,JP,35.7333,140.8333,64.8,44,15,4.47,few clouds
145,Turukhansk,RU,65.8167,87.9833,32.45,99,100,13.06,snow
146,Labuhan,ID,-6.8844,112.2051,89.89,57,62,9.08,broken clouds
147,Srednekolymsk,RU,67.45,153.6833,-6.18,94,31,2.75,scattered clouds
148,Tukrah,LY,32.5341,20.5791,73.69,44,60,16.98,broken clouds
149,Polunochnoye,RU,60.8697,60.4153,35.47,85,99,1.3,overcast clouds
150,Nikolskoye,RU,59.7035,30.7861,33.87,90,70,7.72,broken clouds
151,Coromandel,BR,-18.4733,-47.2003,69.21,64,38,3.71,scattered clouds
152,Yar-Sale,RU,66.8333,70.8333,28.15,79,91,14.65,overcast clouds
153,Camacha,PT,33.0833,-16.3333,67.42,56,75,10.36,broken clouds
154,Mikhaylovka,RU,50.06,43.2379,42.87,67,26,7.83,scattered clouds
155,Seryshevo,RU,51.0933,128.3786,50.63,50,11,4.85,few clouds
156,Edd,ER,13.9297,41.6925,87.24,52,2,11.77,clear sky
157,Nome,US,64.5011,-165.4064,28.47,80,1,0,clear sky
158,Airai,TL,-8.9266,125.4092,80.17,41,44,2.59,scattered clouds
159,Xiaoweizhai,CN,26.1903,107.5125,64.08,57,31,4.99,scattered clouds
160,Zaysan,KZ,47.4667,84.8667,43.7,28,47,4.32,scattered clouds
161,Candido De Abreu,BR,-24.5669,-51.3333,63.23,100,100,3.71,moderate rain
162,Carutapera,BR,-1.195,-46.02,77.59,88,87,5.23,overcast clouds
163,Kaitangata,NZ,-46.2817,169.8464,53.1,85,87,5.03,heavy intensity rain
164,Sao Gabriel,BR,-30.3364,-54.32,56.39,96,66,7.38,broken clouds
165,Krasnoselkup,RU,65.7,82.4667,32.86,98,100,15.57,overcast clouds
166,Lincoln,US,40.8,-96.667,55.78,68,90,4,overcast clouds
167,Floriano,BR,-6.7669,-43.0225,77.36,81,14,1.21,few clouds
168,Yukamenskoye,RU,57.8865,52.2416,37.58,91,94,7.25,light rain
169,Ancud,CL,-41.8697,-73.8203,49.42,81,89,12.73,overcast clouds
170,Hobart,AU,-42.8794,147.3294,55.02,56,75,7,broken clouds
171,San Cristobal,VE,7.7669,-72.225,68.18,98,99,1.9,overcast clouds
172,Vanimo,PG,-2.6741,141.3028,84.76,69,68,9.51,broken clouds
173,Saint-Felicien,CA,48.6501,-72.4491,34.34,74,98,5.79,overcast clouds
174,Andenes,NO,69.3143,16.1194,30.18,93,75,9.22,broken clouds
175,Grindavik,IS,63.8424,-22.4338,45.07,93,75,12.66,broken clouds
176,Acajutla,SV,13.5928,-89.8275,78.78,84,100,4.23,overcast clouds
177,Saskylakh,RU,71.9167,114.0833,6.3,93,100,13,overcast clouds
178,Grand-Santi,GF,4.25,-54.3833,73.09,99,100,2.39,overcast clouds
179,Poum,NC,-20.2333,164.0167,74.84,75,27,5.19,scattered clouds
180,Asosa,ET,10.0667,34.5333,64.42,70,24,5.06,few clouds
181,Sibolga,ID,1.7427,98.7792,81.97,75,98,2.42,overcast clouds
182,Bilibino,RU,68.0546,166.4372,-12.59,100,87,3.13,overcast clouds
183,Griffith,US,41.5284,-87.4237,47.01,90,1,0,clear sky
184,Meulaboh,ID,4.1363,96.1285,84.33,69,79,4.21,broken clouds
185,Yulara,AU,-25.2406,130.9889,87.82,20,41,15.01,scattered clouds
186,Prachuap Khiri Khan,TH,12.2167,99.75,77.2,88,99,7.65,overcast clouds
187,Beloha,MG,-25.1667,45.05,77.76,54,0,3.04,clear sky
188,Los Llanos De Aridane,ES,28.6585,-17.9182,64.15,79,90,11.01,overcast clouds
189,Sergeyevka,KZ,53.88,67.4158,48.92,78,98,12.35,overcast clouds
190,Ribeira Grande,PT,38.5167,-28.7,67.33,58,64,10.18,broken clouds
191,Emilio Carranza,MX,19.9711,-96.6114,76.77,83,94,2.59,overcast clouds
192,Saint Anthony,US,45.0205,-93.218,43.14,78,1,0,clear sky
193,Diffa,NE,13.3154,12.6113,80.22,24,35,9.6,scattered clouds
194,Barbosa Ferraz,BR,-24.03,-52.0117,64.89,98,100,7.09,light rain
195,Talnakh,RU,69.4865,88.3972,22.91,90,100,4.97,overcast clouds
196,Paracatu,BR,-17.2222,-46.8747,72.3,68,44,4.12,scattered clouds
197,Clinton,US,42.587,-82.9199,42.82,94,1,3.44,clear sky
198,Marabba,SD,12.35,32.1833,85.03,37,4,8.61,clear sky
199,Sarramea,NC,-21.6421,165.8452,77.92,68,29,6.44,scattered clouds
200,Mabaruma,GY,8.2,-59.7833,73.96,98,100,4.63,moderate rain
201,Kasempa,ZM,-13.4584,25.8338,76.5,43,94,3.13,overcast clouds
202,Kurumkan,RU,54.3,110.3,41.58,61,95,1.19,overcast clouds
203,Tilichiki,RU,60.4667,166.1,11.37,90,88,8.32,overcast clouds
204,Provideniya,RU,64.3833,-173.3,23.2,79,100,8.81,overcast clouds
205,Nelson Bay,AU,-32.7167,152.15,71.76,67,76,4,broken clouds
206,Dawei,MM,14.0833,98.2,87.28,62,97,6.17,overcast clouds
207,Flin Flon,CA,54.7682,-101.865,37.9,71,98,10.22,overcast clouds
208,Stolin,BY,51.8912,26.846,35.47,94,20,10.56,few clouds
209,Praia,CV,14.9215,-23.5087,75.74,83,20,12.66,few clouds
210,Kulu,TR,39.0951,33.0799,52.3,32,34,2.08,scattered clouds
211,Matara,LK,5.9485,80.5353,86.38,61,59,13.04,broken clouds
212,Kostomuksha,RU,64.571,30.5767,17.96,93,30,4.68,scattered clouds
213,Wasilla,US,61.5814,-149.4394,44.94,66,1,5.01,clear sky
214,Torbay,CA,47.6666,-52.7314,59.77,95,90,11.5,light intensity shower rain
215,Merauke,ID,-8.4667,140.3333,85.44,68,83,16.8,broken clouds
216,Bambous Virieux,MU,-20.3428,57.7575,79.21,73,40,8.05,scattered clouds
217,Tuatapere,NZ,-46.1333,167.6833,53.85,97,100,1.81,overcast clouds
218,Tambovka,RU,50.0969,128.0489,57.31,40,4,6.91,clear sky
219,Dingle,PH,10.9995,122.6711,85.6,73,76,5.28,broken clouds
220,Shanghai,CN,31.2222,121.4581,71.46,47,0,11.18,clear sky
221,Batemans Bay,AU,-35.7167,150.1833,72.99,40,18,9.91,few clouds
222,Igboho,NG,8.8333,3.75,69.39,94,96,3.6,overcast clouds
223,Falmouth,GB,50.1544,-5.0711,54.79,92,97,19.57,overcast clouds
224,Lodeynoye Pole,RU,60.726,33.5531,29.7,93,76,6.55,broken clouds
225,Buraydah,SA,26.326,43.975,76.51,20,0,6.15,clear sky
226,Portland,US,45.5234,-122.6762,54.36,95,75,1.01,broken clouds
227,Zhigansk,RU,66.7697,123.3711,23.86,91,93,9.51,overcast clouds
228,Kamina,CD,-8.7386,24.9906,70.77,76,100,3.87,overcast clouds
229,Namibe,AO,-15.1961,12.1522,64.02,74,62,4.72,broken clouds
230,Arraial Do Cabo,BR,-22.9661,-42.0278,71.11,91,34,28.79,scattered clouds
231,Bobcaygeon,CA,44.5462,-78.542,40.62,82,64,1.54,broken clouds
232,Morondava,MG,-20.2833,44.2833,77.95,51,0,7.25,clear sky
233,Flinders,AU,-34.5833,150.8552,70.21,55,23,9.33,few clouds
234,Khatanga,RU,71.9667,102.5,5.97,91,94,16.62,overcast clouds
235,Mantes-La-Ville,FR,48.9737,1.7025,43.29,85,2,5.59,clear sky
236,Souillac,MU,-20.5167,57.5167,79.36,73,40,8.05,scattered clouds
237,Kisesa,TZ,-3.0833,34.15,74.86,45,94,11.72,overcast clouds
238,Codrington,AU,-38.2667,141.9667,53.51,62,92,14.79,overcast clouds
239,Plouzane,FR,48.3833,-4.6167,55.49,85,75,12.66,broken clouds
240,Ahipara,NZ,-35.1667,173.1667,63.25,82,16,6.11,few clouds
241,Luanda,AO,-8.8368,13.2343,74.48,80,100,4.97,overcast clouds
242,Antigonish,CA,45.6169,-61.9986,61.95,98,100,1.99,very heavy rain
243,Inta,RU,66.0317,60.1659,21.65,95,49,13.47,scattered clouds
244,Jiaozuo,CN,35.2397,113.2331,65.41,40,17,9.06,few clouds
245,Izhma,RU,65.0083,53.9113,23.7,94,59,3.33,broken clouds
246,Susanville,US,40.4163,-120.653,43.83,86,100,3,overcast clouds
247,Baculin,PH,7.4525,126.5842,86,70,100,2.95,moderate rain
248,Norman Wells,CA,65.282,-126.8329,27.1,93,2,1.48,clear sky
249,Tezu,IN,27.9167,96.1667,84.11,51,3,3.6,clear sky
250,Mana,GF,5.6592,-53.7767,77.59,89,91,9.73,overcast clouds
251,North Bend,US,43.4065,-124.2243,54.07,99,90,5.75,overcast clouds
252,Lima,PE,-12.0432,-77.0282,60.91,83,37,6.91,scattered clouds
253,Katsuura,JP,35.1333,140.3,64.51,52,36,6.08,scattered clouds
254,Leningradskiy,RU,69.3833,178.4167,10.26,94,100,8.37,overcast clouds
255,Lira,UG,2.235,32.9097,69.57,76,7,3.2,clear sky
256,Cabo San Lucas,MX,22.8909,-109.9124,78.51,74,4,10.98,clear sky
257,Astoria,US,46.1879,-123.8313,54.01,93,75,1.01,broken clouds
258,Dudinka,RU,69.4058,86.1778,24.73,93,100,9.44,overcast clouds
259,Dunedin,NZ,-45.8742,170.5036,56.8,82,79,1.99,broken clouds
260,Ejido,VE,8.5514,-71.2375,66.38,91,100,4.63,overcast clouds
261,Necochea,AR,-38.5473,-58.7368,37.04,73,0,8.61,clear sky
262,Victoria,HK,22.2855,114.1577,76.96,65,9,7,clear sky
263,Yairipok,IN,24.6667,94.0667,78.8,57,8,1.32,clear sky
264,Chuy,UY,-33.6971,-53.4616,52.27,95,31,7.38,scattered clouds
265,Atambua,ID,-9.1061,124.8925,87.46,55,30,5.3,scattered clouds
266,Shingu,JP,33.7333,135.9833,65.39,48,59,5.7,broken clouds
267,Sisimiut,GL,66.9395,-53.6735,21.2,84,100,7.25,overcast clouds
268,Odweyne,SO,9.4092,45.064,76.44,29,2,12.3,clear sky
269,Geraldton,AU,-28.7667,114.6,81.01,44,0,13.8,clear sky
270,Batticaloa,LK,7.7102,81.6924,84.56,65,68,2.06,broken clouds
271,Mezen,RU,65.8522,44.24,29.66,91,100,7.92,light snow
272,Kampot,KH,10.6167,104.1833,87.85,76,84,11.63,broken clouds
273,Natal,BR,-5.795,-35.2094,81.25,78,40,13.8,scattered clouds
274,Santa Fe,AR,-31.6333,-60.7,60.01,69,0,1.99,clear sky
275,Serowe,BW,-22.3833,26.7167,71.62,20,28,6.46,scattered clouds
276,Humaita,BR,-7.5061,-63.0208,77.76,74,51,3.04,broken clouds
277,Salalah,OM,17.0151,54.0924,80.69,65,0,2.3,clear sky
278,Ranong,TH,9.9658,98.6348,85.24,68,97,5.59,overcast clouds
279,Fortuna,US,40.5982,-124.1573,59.67,86,75,3,broken clouds
280,Sao Filipe,CV,14.8961,-24.4956,78.33,67,13,11.01,few clouds
281,Grand Gaube,MU,-20.0064,57.6608,79.38,68,79,10,broken clouds
282,Umm Kaddadah,SD,13.6017,26.6876,79.72,23,64,20.62,broken clouds
283,Hofn,IS,64.2539,-15.2082,44.38,72,100,7.23,overcast clouds
284,Touros,BR,-5.1989,-35.4608,81.5,76,67,12.64,broken clouds
285,Omboue,GA,-1.5746,9.2618,74.59,92,99,2.53,overcast clouds
286,Faanui,PF,-16.4833,-151.75,76.57,85,89,13.89,moderate rain
287,Elizabeth City,US,36.2946,-76.2511,62.62,92,1,0,clear sky
288,Kavieng,PG,-2.5744,150.7967,84.63,72,37,11.36,light rain
289,Lata,PT,40.1629,-8.3327,55.81,67,0,2.44,clear sky
290,Leh,IN,34.1667,77.5833,34.11,73,100,3.58,overcast clouds
291,Marathon,US,44.9,-89.7668,36.19,86,1,0,clear sky
292,Kibaya,TZ,-5.3,36.5667,66.96,50,70,6.85,broken clouds
293,Ostrovnoy,RU,68.0531,39.5131,24.71,90,59,17.81,broken clouds
294,Dhidhdhoo,MV,6.8833,73.1,81,79,100,9.48,overcast clouds
295,Olinda,BR,-8.0089,-34.8553,82.13,69,40,8.05,scattered clouds
296,Galeana,MX,24.8333,-100.0667,59.41,79,34,2.93,scattered clouds
297,Paita,PE,-5.0892,-81.1144,64.96,83,97,11.25,overcast clouds
298,Aykhal,RU,66,111.5,25.36,92,100,17.83,overcast clouds
299,Narasannapeta,IN,18.4167,84.05,82.85,58,63,4.47,broken clouds
300,Dharchula,IN,29.85,80.5333,70.81,59,0,5.61,clear sky
301,Shelburne,CA,44.0787,-80.2041,41.56,89,57,5.5,broken clouds
302,Pontianak,ID,-0.0333,109.3333,89.58,62,40,5.75,scattered clouds
303,Baishishan,CN,43.5833,127.5667,53.1,44,0,7.16,clear sky
304,Ndjole,GA,-0.1783,10.7649,73.44,99,99,0.27,overcast clouds
305,Deputatskiy,RU,69.3,139.9,-0.35,97,100,2.8,overcast clouds
306,Caravelas,BR,-17.7125,-39.2481,72.7,96,72,2.24,broken clouds
307,Bulungu,CD,-4.55,18.6,70.7,98,88,2.73,overcast clouds
308,Yazman,PK,29.1212,71.7446,76.91,56,0,15.32,clear sky
309,Talara,PE,-4.5772,-81.2719,65.98,83,95,14.99,overcast clouds
310,Celarevo,RS,45.2694,19.5253,46.22,72,3,3.62,clear sky
311,Fairbanks,US,64.8378,-147.7164,33.93,86,1,0,clear sky
312,Makkaveyevo,RU,51.7533,113.9454,47.12,38,13,7.58,few clouds
313,Cidreira,BR,-30.1811,-50.2056,63.09,94,99,14.12,overcast clouds
314,Takoradi,GH,4.8845,-1.7554,76.46,88,89,1.77,overcast clouds
315,Palu,ID,-0.8917,119.8707,85.59,76,78,3.89,broken clouds
316,Bennington,US,42.8781,-73.1968,45.28,90,75,0,broken clouds
317,Cap-Aux-Meules,CA,47.3821,-61.8597,55.94,98,100,6.29,overcast clouds
318,Makakilo City,US,21.3469,-158.0858,77.32,62,1,9.22,clear sky
319,Rawson,AR,-43.3002,-65.1023,53.65,36,2,18.03,clear sky
320,Nishihara,JP,26.1842,127.7558,80.26,61,75,11.5,broken clouds
321,Tavares,US,28.8042,-81.7256,75.99,86,1,4.61,clear sky
322,Gat,IL,31.61,34.7642,68.4,100,1,2.71,clear sky
323,Linhares,BR,-19.3911,-40.0722,69.22,97,21,3.06,few clouds
324,Sinnamary,GF,5.3833,-52.95,78.3,86,87,10.04,overcast clouds
325,Saint-Augustin,CA,51.226,-58.6502,40.98,93,100,10.94,overcast clouds
326,Altay,CN,47.8667,88.1167,35.62,52,40,2.66,scattered clouds
327,Port Hardy,CA,50.6996,-127.4199,45.66,88,33,9.06,scattered clouds
328,Maneciu,RO,45.3167,25.9833,45.86,81,73,5.55,broken clouds
329,Sterling,US,39.0062,-77.4286,55.98,89,90,3.44,overcast clouds
330,Kenai,US,60.5544,-151.2583,44.1,77,1,13.8,clear sky
331,Ust-Maya,RU,60.4167,134.5333,31.5,97,100,8.1,snow
332,Guerrero Negro,MX,27.9769,-114.0611,65.97,77,19,20.31,few clouds
333,Vanavara,RU,60.34,102.2797,34.54,95,100,13.09,light rain
334,Rio Grande,BR,-32.035,-52.0986,56.95,91,82,13.35,broken clouds
335,Asind,IN,25.7333,74.3333,78.12,55,4,8.28,clear sky
336,Yenotayevka,RU,47.2456,47.0281,54.99,69,100,6.15,overcast clouds
337,Port Moresby,PG,-9.4431,147.1797,84.34,68,72,8.34,broken clouds
338,High Prairie,CA,55.4334,-116.4858,36.95,98,100,2.89,overcast clouds
339,Binabalian,PH,16.4202,119.9279,82.99,72,100,8.57,overcast clouds
340,Ko Samui,TH,9.5357,99.9357,83.68,71,97,10.38,overcast clouds
341,Junction City,US,39.0286,-96.8314,66.61,90,75,8.01,broken clouds
342,Bonavista,CA,48.6499,-53.1147,58.12,100,100,10.33,moderate rain
343,Moose Factory,CA,51.2585,-80.6094,31.98,100,90,4.61,overcast clouds
344,Wolkersdorf,AT,48.3833,16.5167,43.11,73,1,1.41,clear sky
345,Kang,BW,-23.6752,22.7876,59.2,49,9,12.01,clear sky
346,Vung Tau,VN,10.346,107.0843,84.92,69,92,0.78,overcast clouds
347,Bloemendaal,NL,52.4,4.6167,45.95,90,0,9.22,clear sky
348,Bara,NG,10.3744,10.7288,73.24,88,82,4.5,broken clouds
349,Araouane,ML,18.9048,-3.5265,80.98,24,22,8.84,few clouds
350,Hambantota,LK,6.1241,81.1185,86.83,61,63,15.3,broken clouds
351,Negotin,RS,44.2264,22.5308,43.54,67,3,8.08,clear sky
352,Meadow Lake,US,34.8014,-106.5436,62.29,25,95,7.72,overcast clouds
353,Henties Bay,NA,-22.116,14.2845,58.86,88,49,4.9,scattered clouds
354,Areosa,PT,41.7178,-8.8571,55.31,78,0,4.25,clear sky
355,Chapais,CA,49.7834,-74.8492,28.62,90,100,0.51,overcast clouds
356,Dukat,RU,62.55,155.55,-1.57,96,36,1.79,scattered clouds
357,Vaitape,PF,-16.5167,-151.75,76.68,85,89,13.91,moderate rain
358,Diamantino,BR,-14.4086,-56.4461,79.05,69,49,9.1,scattered clouds
359,Laguna,US,38.421,-121.4238,60.91,86,90,1.01,mist
360,Jonava,LT,55.0833,24.2833,35.11,96,0,1.99,light rain
361,Ardakan,IR,32.31,54.0175,57.58,16,0,0.51,clear sky
362,Ponnani,IN,10.767,75.9252,85.32,77,99,1.1,overcast clouds
363,Jijiga,ET,9.35,42.8,68.18,33,3,14.76,clear sky
364,Urumqi,CN,43.801,87.6005,41.95,65,0,4.47,clear sky
365,Verkhoyansk,RU,67.5447,133.385,10.26,93,100,2.51,light snow
366,Tahe,CN,52.3333,124.7333,49.23,48,7,1.95,clear sky
367,Huambo,AO,-12.7761,15.7392,62.38,77,28,1.72,scattered clouds
368,Kysyl-Syr,RU,63.8986,122.7617,33.48,76,98,11.16,overcast clouds
369,Port Elizabeth,ZA,-33.918,25.5701,58.82,64,18,10.98,few clouds
370,Yumen,CN,40.2833,97.2,52.34,23,84,5.79,broken clouds
371,Vilcun,CL,-38.65,-72.2333,45.34,87,72,0.78,broken clouds
372,Saint-Pierre,RE,-21.3393,55.4781,80.24,77,75,9.22,broken clouds
373,Zaranj,AF,30.9667,61.8833,62.38,19,0,11.12,clear sky
374,Lavrentiya,RU,65.5833,-171,23.23,83,100,10.09,overcast clouds
375,Ucluelet,CA,48.9329,-125.5528,47.08,90,29,10.09,scattered clouds
376,Inverell,AU,-29.7833,151.1167,83.1,31,1,5.01,clear sky
377,Benguela,AO,-12.5763,13.4055,74.07,74,100,4.27,overcast clouds
378,Bom Jesus,BR,-9.0744,-44.3586,71.78,94,83,1.54,broken clouds
379,Guirang,PH,11.35,125.1167,83.97,80,100,2.55,overcast clouds
380,Palmer,US,42.1584,-72.3287,49.44,87,1,3.44,clear sky
381,Abalak,RU,58.1286,68.5944,42.1,84,12,9.78,few clouds
382,Semirom,IR,31.4167,51.5667,52.03,28,0,5.19,clear sky
383,Hemsedal,NO,60.8629,8.5534,43.23,75,100,4.52,overcast clouds
384,Araxa,BR,-19.5933,-46.9406,67.3,64,53,3.18,broken clouds
385,Muros,ES,42.7762,-9.0603,58.84,96,4,7.4,clear sky
386,Baturyn,UA,51.3457,32.8779,41.74,77,100,11.27,overcast clouds
387,Pacific Grove,US,36.6177,-121.9166,60.91,76,90,1.99,overcast clouds
388,Dzemul,MX,21.2,-89.3,75.27,92,86,4.68,overcast clouds
389,Cangucu,BR,-31.395,-52.6756,52.45,96,89,7.11,overcast clouds
390,Sassandra,CI,4.95,-6.0833,75.72,91,99,0.22,light rain
391,Waddan,LY,29.1614,16.139,76.89,24,98,10.85,overcast clouds
392,Arman,RU,59.7,150.1667,25.23,58,67,8.14,broken clouds
393,Sioux Lookout,CA,50.1001,-91.917,34.18,93,40,4.61,light shower snow
394,Klaksvik,FO,62.2266,-6.589,47.32,93,83,13.73,broken clouds
395,Makoshyne,UA,51.46,32.3396,42.35,79,100,11.45,overcast clouds
396,Jumla,NP,29.2747,82.1838,62.22,42,0,4.61,clear sky
397,Uvat,RU,59.1433,68.8953,40.87,83,21,11.79,few clouds
398,Whitianga,NZ,-36.8333,175.7,60.03,96,100,11.97,overcast clouds
399,Bursa,TR,40.1667,29.0833,37.44,78,3,0.67,clear sky
400,Sorong,ID,-0.8833,131.25,83.23,76,100,7.54,overcast clouds
401,Novopokrovka,UA,49.8425,36.5477,35.98,72,32,5.79,scattered clouds
402,Araceli,PH,10.5529,119.9913,80.64,78,100,2.39,overcast clouds
403,Kalmunai,LK,7.4167,81.8167,85.95,63,72,2.48,broken clouds
404,Xocali,AZ,39.913,46.7903,59.23,47,0,2.53,clear sky
405,Lucea,JM,18.451,-78.1736,80.46,78,100,4.63,overcast clouds
406,Aiquile,BO,-18.2041,-65.1807,61.38,81,63,4.99,broken clouds
407,Caborca,MX,30.5838,-111.101,67.24,50,62,4.97,broken clouds
408,Liwonde,MW,-15.0506,35.2035,84.74,33,39,7.2,scattered clouds
409,Nemuro,JP,43.3236,145.575,53.2,67,7,14.43,clear sky
410,Jieshi,CN,22.8134,115.8257,74.95,62,22,7.83,few clouds
411,Soissons,FR,49.3333,3.3333,43,90,4,5.68,clear sky
412,Lafia,NG,8.4833,8.5167,73.18,90,96,0.27,overcast clouds
413,Zambezi,ZM,-13.5432,23.1047,73.18,55,32,5.44,scattered clouds
414,Brezno,SK,48.8043,19.6363,40.55,90,18,3.44,few clouds
415,Churapcha,RU,62.0025,132.4325,31.93,99,100,8.81,snow
416,Ginda,IN,30.6945,78.4932,61,57,99,3.58,overcast clouds
417,Rosetta,EG,31.4044,30.4164,70.9,68,94,4.94,overcast clouds
418,Harpalpur,IN,25.2884,79.3347,81.48,44,0,4.63,clear sky
419,Mehamn,NO,71.0357,27.8492,34.92,65,80,17.16,snow
420,Hualmay,PE,-11.0964,-77.6139,62.37,85,37,9.55,scattered clouds
421,Nantucket,US,41.2835,-70.0995,55.51,63,90,12.66,overcast clouds
422,Hammerfest,NO,70.6634,23.6821,32.45,86,75,4.61,light snow
423,Buta,CD,2.7858,24.73,70.07,97,100,1.01,overcast clouds
424,Terra Santa,BR,-2.1042,-56.4869,76.03,89,95,2.73,overcast clouds
425,Uhlove,UA,44.8215,33.6045,52.57,75,100,18.16,overcast clouds
426,Tahta,EG,26.7693,31.5021,66.09,60,0,11.3,clear sky
427,Port Blair,IN,11.6667,92.75,83.97,69,91,6.8,overcast clouds
428,Hanstholm,DK,57.1167,8.6167,49.75,83,100,17.27,overcast clouds
429,Gobabis,NA,-22.45,18.9667,52.83,65,0,10.85,clear sky
430,Karlshamn,SE,56.1706,14.8619,39.9,87,99,5.44,overcast clouds
431,Haines Junction,CA,60.7522,-137.5108,28.35,93,88,2.3,overcast clouds
432,Richards Bay,ZA,-28.783,32.0377,65.59,78,100,15.79,light rain
433,The Pas,CA,53.8251,-101.2541,40.15,62,100,11.88,overcast clouds
434,Shimoda,JP,34.6667,138.95,62.1,62,97,8.5,overcast clouds
435,Camabatela,AO,-8.1881,15.375,64.13,97,100,2.15,overcast clouds
436,Chincha Alta,PE,-13.4099,-76.1323,59.76,80,33,3.47,scattered clouds
437,Ubud,ID,-8.5098,115.2654,85.32,46,43,8.88,scattered clouds
438,Luderitz,NA,-26.6481,15.1594,58.15,62,0,11.5,clear sky
439,Constitucion,CL,-35.3333,-72.4167,49.86,84,1,10.04,clear sky
440,Mitsamiouli,KM,-11.3847,43.2844,80.22,79,57,11.03,broken clouds
441,Puerto Escondido,MX,15.85,-97.0667,77.59,83,84,3.4,broken clouds
442,Mercedes,AR,-34.6515,-59.4307,53.83,74,0,5.84,clear sky
443,Chokurdakh,RU,70.6333,147.9167,-2.72,98,98,4.29,overcast clouds
444,Dakar,SN,14.6937,-17.4441,78.93,73,40,0,scattered clouds
445,Saint-Louis,SN,16.3333,-15,83.52,26,87,3.06,overcast clouds
446,Karratha,AU,-20.7377,116.8463,92.52,23,4,16.89,clear sky
447,Ertil,RU,51.8406,40.8056,36.73,82,18,7.76,few clouds
448,Burnie,AU,-41.0667,145.9167,59.94,45,30,9.62,scattered clouds
449,Labuan,MY,5.2767,115.2417,87.96,75,100,6.22,light rain
450,Mamallapuram,IN,12.6264,80.1722,91.45,62,100,0.89,overcast clouds
451,Cayenne,GF,4.9333,-52.3333,80.1,88,20,1.01,few clouds
452,Aquiraz,BR,-3.9014,-38.3911,84.22,68,57,9.93,broken clouds
453,Berlevag,NO,70.8578,29.0864,36.48,65,78,20.74,light rain
454,Hirara,JP,24.8,125.2833,76.71,69,71,14,broken clouds
455,Molina,CL,-35.1167,-71.2833,51.53,66,39,3.44,scattered clouds
456,Pingliang,CN,35.5392,106.6861,55.78,57,65,7.05,broken clouds
457,Hof,DE,50.3167,11.9167,36.1,88,5,5.99,clear sky
458,Ongole,IN,15.5,80.05,86.63,56,74,7.27,broken clouds
459,Gamba,GA,-2.65,10,76.03,87,100,2.33,light rain
460,Bac Lieu,VN,9.285,105.7244,85.62,71,66,7.76,broken clouds
461,Jardim,BR,-21.4803,-56.1381,70.79,94,100,4.47,moderate rain
462,Enid,US,36.3956,-97.8784,77.14,69,90,5.01,overcast clouds
463,Alofi,NU,-19.0595,-169.9187,73.29,64,96,11.5,overcast clouds
464,Jackson,US,42.4165,-122.8345,57.07,70,90,16.11,overcast clouds
465,Caraballeda,VE,10.6112,-66.8522,78.87,83,75,2.3,broken clouds
466,Maua,BR,-23.6678,-46.4614,73.36,97,100,2.57,moderate rain
467,Placido De Castro,BR,-10.3353,-67.1856,78.71,73,70,3.29,broken clouds
468,Bani Walid,LY,31.7566,13.9942,75.36,43,100,8.12,overcast clouds
469,Dobson,US,36.3957,-80.7226,58.41,90,50,0.83,scattered clouds
470,Santiago De Cao,PE,-7.9589,-79.2392,62.26,89,40,11.77,scattered clouds
471,Sitka,US,57.0531,-135.33,44.49,81,75,11.5,light rain
472,Lagoa,PT,39.05,-27.9833,66.56,58,64,11.97,broken clouds
473,Trairi,BR,-3.2778,-39.2689,79.7,77,41,9.4,scattered clouds
474,Fountain Hills,US,33.6117,-111.7174,73.29,36,1,4.61,clear sky
475,Turbat,PK,26.0023,63.044,81.68,6,0,8.19,clear sky
476,Ola,RU,59.5833,151.2833,28.2,58,99,9.26,overcast clouds
477,Stephenville,US,32.2207,-98.2023,74.25,81,1,11.5,clear sky
478,Jingdezhen,CN,29.2947,117.2079,63.36,77,99,2.66,overcast clouds
479,Kupang,ID,-10.1667,123.5833,90.18,66,20,12.66,few clouds
480,Manadhoo,MV,5.7667,73.3833,82.51,71,94,11.63,overcast clouds
481,Atar,MR,20.5169,-13.0499,76.84,21,17,8.14,few clouds
482,Verkh-Chebula,RU,56.0308,87.6218,42.71,82,100,23.8,overcast clouds
483,Gummidipundi,IN,13.4,80.15,91.4,60,100,2.91,overcast clouds
484,Petropavlovsk-Kamchatskiy,RU,53.0452,158.6483,41.59,61,40,2.24,scattered clouds
485,Plettenberg Bay,ZA,-34.0527,23.3716,56.64,72,54,4.45,broken clouds
486,Quepos,CR,9.4236,-84.1652,78.1,90,50,2.91,scattered clouds
487,Arrecife,ES,28.963,-13.5477,68.07,72,20,5.75,few clouds
488,Ngunguru,NZ,-35.6167,174.5,65.16,97,99,12.55,overcast clouds
489,Santa Rosa,PH,14.3122,121.1114,81.86,77,100,9.55,overcast clouds
490,Burns Lake,CA,54.2331,-125.7533,24.22,92,18,1.32,few clouds
491,Mazyr,BY,52.0495,29.2456,37.65,84,76,13.2,broken clouds
492,Bubaque,GW,11.2833,-15.8333,81.57,76,100,4.25,light rain
493,Lulea,SE,65.5842,22.1547,12.27,92,90,2.3,overcast clouds
494,Pisco,PE,-13.7,-76.2167,61.02,86,30,2.08,scattered clouds
495,Lake Jackson,US,29.0339,-95.4344,73.94,95,1,4.61,clear sky
496,Saint-Pierre-Des-Corps,FR,47.3833,0.7333,36.25,100,0,3.44,clear sky
497,Kawalu,ID,-7.3817,108.2082,90.43,50,84,5.08,broken clouds
498,Indramayu,ID,-6.3264,108.32,87.6,61,84,10.47,broken clouds
499,Quelimane,MZ,-17.8786,36.8883,75.15,78,0,10.36,clear sky
500,La Ronge,CA,55.1001,-105.2842,37.65,75,40,17.27,scattered clouds
501,Oranjemund,NA,-28.55,16.4333,56.86,72,0,10.22,clear sky
502,Ust-Nera,RU,64.5667,143.2,7.02,95,93,4.94,overcast clouds
503,Camana,PE,-16.6228,-72.7111,61.47,83,54,9.26,broken clouds
504,Rincon,US,32.296,-81.2354,63.86,94,1,0,clear sky
505,Ipixuna,BR,-1.7625,-48.8043,78.75,95,99,3.76,overcast clouds
506,Presidencia Roque Saenz Pena,AR,-26.7852,-60.4388,57.6,97,0,3.8,clear sky
507,Ampanihy,MG,-24.7,44.75,79.23,40,0,4.5,clear sky
508,Dunkwa,GH,5.9656,-1.78,71.13,99,89,0.31,overcast clouds
509,Mareeba,AU,-17,145.4333,88.45,42,38,11.54,scattered clouds
510,Chaiya,TH,9.3862,99.1986,89.58,71,92,6.4,overcast clouds
511,Nalut,LY,30.3333,10.85,67.14,60,81,6.71,broken clouds
512,Guangyuan,CN,32.442,105.823,65.59,64,53,2.84,broken clouds
513,Ziway,ET,7.9333,38.7167,65.95,52,17,9.57,few clouds
514,Port Lincoln,AU,-34.7333,135.8667,60.96,57,8,11.3,clear sky
515,Zhanakorgan,KZ,43.9098,67.2495,57.63,28,1,3.85,clear sky
516,Otane,NZ,-39.8833,176.6333,54,88,100,2.59,overcast clouds
517,Lensk,RU,60.7253,114.9278,35.65,78,100,10.16,overcast clouds
518,Sao Jose Da Coroa Grande,BR,-8.8978,-35.1478,77.65,84,39,10.6,scattered clouds
519,Bayir,TR,37.2687,28.2167,46.92,63,0,3.87,clear sky
520,Beringovskiy,RU,63.05,179.3167,10.9,76,3,7.94,clear sky
521,Ust-Barguzin,RU,53.45,108.9833,42.15,70,97,3.18,overcast clouds
522,College,US,64.8569,-147.8028,33.91,86,40,3.44,scattered clouds
523,Tatawin,TN,32.9297,10.4518,67.08,86,49,4.05,scattered clouds
524,Chateau-Gontier,FR,47.8333,-0.7,38.12,85,4,6.58,clear sky
525,Hami,CN,42.8,93.45,51.24,38,100,5.88,overcast clouds
526,Adrar,MR,20.5022,-10.0711,78.04,16,59,8.86,broken clouds
527,Madimba,TZ,-10.4,40.3333,80.04,72,41,6.33,scattered clouds
528,Aklavik,CA,68.2191,-135.0107,22.41,95,87,4.74,overcast clouds
529,Smoky Lake,CA,54.1169,-112.4686,37.56,100,100,6.91,overcast clouds
530,Fort Nelson,CA,58.8053,-122.7002,27.99,93,40,4.61,scattered clouds
531,Andra,RU,62.5147,65.8878,30.88,78,40,10.69,scattered clouds
532,Huilong,CN,31.8111,121.655,68.99,50,84,8.21,broken clouds
533,Boyolangu,ID,-8.1181,111.8935,89.82,51,73,9.33,broken clouds
534,Saqqez,IR,36.2499,46.2735,53.37,33,1,1.23,clear sky
535,Toamasina,MG,-18.1667,49.3833,78.8,89,75,4.61,broken clouds
536,Divicani,BA,44.3667,17.3261,28.24,95,7,2.64,clear sky
537,Corowa,AU,-36.0333,146.3833,68.38,46,5,17.18,clear sky
538,Ihosy,MG,-22.4,46.1167,79.12,22,0,4.56,clear sky
539,Las Palmas,ES,28.4204,-14.0131,65.19,68,0,8.05,clear sky
540,Hamilton,US,39.1834,-84.5333,55.49,94,90,0,mist
541,Mahibadhoo,MV,3.7833,72.9667,83.23,71,74,13.35,broken clouds
542,Tashtyp,RU,52.7939,89.8983,45.23,70,95,13.87,overcast clouds
543,Kedrovyy,RU,56.1667,91.8167,43.21,95,100,15.48,light rain
544,Nevel,RU,56.0209,29.9284,34.83,92,100,9.73,overcast clouds
545,Sur,OM,22.5667,59.5289,86.65,48,1,5.12,clear sky
546,Kununurra,AU,-15.7667,128.7333,100.38,37,40,9.22,scattered clouds
547,Vila Franca Do Campo,PT,37.7167,-25.4333,64.81,83,78,6.4,broken clouds
548,Ponta Do Sol,PT,32.6667,-17.1,70.43,63,19,6.4,few clouds
549,Acari,PE,-15.4311,-74.6158,64.27,72,35,3.38,scattered clouds
550,Brae,GB,60.3964,-1.353,51.71,96,100,17.27,overcast clouds
551,Najran,SA,17.4924,44.1277,70.45,24,7,1.34,clear sky
552,Vavatenina,MG,-17.4667,49.2,81.36,70,87,2.8,overcast clouds
553,Nueva Concepcion,GT,14.2,-91.3,82.76,94,100,4.79,overcast clouds
554,Northam,GB,51.0333,-4.2167,56.01,83,84,21.41,light rain
555,Beckley,US,37.7782,-81.1882,53.28,83,90,0,overcast clouds
556,Kavaratti,IN,10.5669,72.642,81.3,75,83,3.91,broken clouds
557,Marawi,PH,7.9986,124.2928,75.65,64,85,4.92,overcast clouds
558,Baytown,US,29.7355,-94.9774,73.04,90,70,11.21,broken clouds
559,Mosquera,CO,4.7059,-74.2302,55.49,94,75,2.3,broken clouds
560,Jeremie,HT,18.65,-74.1167,78.96,75,58,2.28,broken clouds
561,Kushima,JP,31.4583,131.2333,68.04,59,97,10.87,overcast clouds
562,Mapimi,MX,25.8167,-103.85,69.17,40,0,3.65,clear sky
563,Ordzhonikidzevskiy,RU,43.8423,41.8964,49.46,46,98,2.62,overcast clouds
564,Les Cayes,HT,18.2,-73.75,77.07,83,78,3.24,broken clouds
565,Gravelbourg,CA,49.8834,-106.5512,39.47,52,100,15.9,overcast clouds
566,Ureki,GE,41.9956,41.7786,53.56,66,44,4.41,scattered clouds
567,Solnechnyy,RU,50.7214,136.6319,46.89,62,0,4.45,clear sky
568,Ryotsu,JP,38.0833,138.4333,64.36,51,48,6.71,scattered clouds
569,Muroto,JP,33.2833,134.15,68.04,50,94,5.82,overcast clouds
570,Kodinsk,RU,58.6881,99.1844,37.11,96,100,11.99,overcast clouds
571,Sao Miguel Do Araguaia,BR,-13.275,-50.1628,79.74,63,83,7.45,broken clouds
572,Ponta Delgada,PT,37.7333,-25.6667,65.12,77,20,9.22,few clouds
573,Flagstaff,US,35.1981,-111.6513,51.46,56,1,5.01,clear sky
574,Songjianghe,CN,42.1859,127.479,51.21,36,0,4.94,clear sky
575,Udankudi,IN,8.4333,78.0167,93.38,62,98,2.19,overcast clouds
576,Wicklow,IE,53,-6.4167,50.05,95,91,11.54,overcast clouds
577,Payo,ID,-3.7508,103.6372,89.02,62,91,1.32,overcast clouds
578,Nanning,CN,22.8167,108.3167,73.85,56,37,7.43,scattered clouds
579,Katherine,AU,-14.4667,132.2667,97.12,32,75,10.36,broken clouds
580,Soskovo,RU,52.7475,35.3828,39.96,76,67,15.93,light rain
581,Awbari,LY,26.5921,12.7805,75.88,19,12,10.85,few clouds
582,Bilma,NE,18.6853,12.9164,76.42,17,33,6.33,scattered clouds
583,Columbia,US,34.0007,-81.0348,55.53,88,1,0,clear sky
584,Vangaindrano,MG,-23.35,47.6,78.15,76,19,6.82,few clouds
585,Vila,PT,42.0304,-8.1588,44.33,74,0,2.98,clear sky
586,San Luis,AR,-33.295,-66.3356,56.19,29,0,6.67,clear sky
587,Bonthe,SL,7.5264,-12.505,75.31,93,85,4.05,light rain
588,San Andres,CO,12.5847,-81.7006,80.62,89,40,4.61,scattered clouds
589,Rochester,US,43.1548,-77.6156,44.24,89,90,0,overcast clouds
590,Augustdorf,DE,51.9094,8.7317,39.79,90,57,6.15,broken clouds
591,Tshikapa,CD,-6.4167,20.8,71.22,93,73,2.21,broken clouds
592,Yerbogachen,RU,61.2767,108.0108,32.22,93,100,11.92,light snow
593,Hanna,CA,51.6334,-111.9018,39.22,93,100,1.99,overcast clouds
594,Longkou,CN,37.6508,120.3286,58.84,53,26,6.42,scattered clouds
595,Tenochtitlan,MX,24.0769,-104.5844,58.89,61,1,6.02,clear sky
596,Terrak,NO,65.087,12.3715,42.67,89,100,8.95,light rain
597,Smithers,CA,54.7804,-127.1743,30.52,93,90,3.44,overcast clouds
598,Severnyy,RU,50.677,36.5532,35.64,75,0,11.18,clear sky
599,Wenatchee,US,47.4235,-120.3103,49.57,81,90,1.99,overcast clouds
600,Cabildo,AR,-38.4842,-61.8954,47.25,55,0,11.18,clear sky
601,Faya,SA,18.3851,42.4509,64.51,23,6,4.12,clear sky
602,Praia Da Vitoria,PT,38.7333,-27.0667,62.85,88,20,10.92,few clouds
603,Puerto Baquerizo Moreno,EC,-0.9,-89.6,68.41,87,75,9.89,broken clouds
604,Vinh,VN,18.6667,105.6667,68.99,73,100,8.41,overcast clouds
605,Norfolk,US,42.1668,-71.2495,50.88,76,90,0,overcast clouds
606,Daru,PG,-9.0763,143.2092,84.18,74,99,13.49,overcast clouds
607,Bontang,ID,0.1333,117.5,85.44,69,85,8.52,overcast clouds
608,Dickinson,US,29.4608,-95.0513,73.04,92,40,1.01,scattered clouds
609,Martinsburg,US,39.4562,-77.9639,53.11,89,90,0,overcast clouds
610,Rocha,UY,-34.4833,-54.3333,50.32,93,14,7.45,few clouds
611,Asekeyevo,RU,53.5742,52.7972,45.57,95,100,7.4,overcast clouds
612,Tyulgan,RU,52.3405,56.166,47.55,89,100,17.05,moderate rain
613,Aromashevo,RU,56.8602,68.6375,44.71,80,23,13.04,few clouds
614,Kaduna,NG,10.5222,7.4383,67.42,93,60,3.09,broken clouds
615,Port Hueneme,US,34.1478,-119.1951,63.63,85,1,6.91,clear sky
616,Verkhniy Avzyan,RU,53.5289,57.5372,46.81,90,100,10.83,light rain
617,Kandrian,PG,-6.2167,149.55,84.43,71,46,10.92,scattered clouds
618,Mogwase,ZA,-25.185,27.2665,64.47,24,2,8.16,clear sky
619,Tommot,RU,58.9564,126.2925,38.52,89,100,9.26,overcast clouds
620,Miandrivazo,MG,-19.5167,45.4667,84.24,31,0,0.31,clear sky
621,Ahmadpur,IN,18.7,76.9333,77.18,54,18,3.98,few clouds
622,Tigre,AR,-34.426,-58.5796,57.2,60,0,4.61,clear sky
623,Marzuq,YE,14.4,46.4667,73.04,28,97,3.51,overcast clouds
624,Kirakira,SB,-10.4544,161.9205,85.1,73,10,12.21,clear sky
625,Virginia Beach,US,36.8529,-75.978,60.03,85,20,0,few clouds
626,Harwich,GB,51.9419,1.2844,55.22,70,54,8.99,broken clouds
627,Sri Aman,MY,1.2376,111.4621,89.65,66,40,3.44,scattered clouds
628,Primorsk,UA,46.7348,36.3443,48.34,58,100,7.92,overcast clouds
629,Mantua,IT,45.1667,10.7833,55.71,75,54,5.01,broken clouds
630,Te Anau,NZ,-45.4167,167.7167,54.48,94,100,0.74,overcast clouds
631,Kalabo,ZM,-14.97,22.6814,77,51,85,3.13,overcast clouds
632,Caernarfon,GB,53.1413,-4.2702,54.68,45,90,26.46,light rain
633,Wanning,CN,18.8003,110.3967,77.13,76,86,15.77,overcast clouds
634,Ayagoz,KZ,47.9714,80.4392,42.96,38,28,11.34,scattered clouds
635,Laizhou,CN,37.1717,119.9214,62.62,40,21,6.53,few clouds
636,Bani,DO,18.2833,-70.3333,78.85,79,43,7.11,scattered clouds
637,Half Moon Bay,US,37.4636,-122.4286,61.9,88,90,3,mist
638,Novikovo,RU,51.1537,37.8879,37.44,76,53,8.34,broken clouds
639,General Roca,AR,-39.0333,-67.5833,57.61,42,2,29.21,clear sky
640,Guadalupe Y Calvo,MX,26.1,-106.9667,46.35,82,0,4.85,clear sky
641,Muisne,EC,0.6,-80.0333,75.61,87,100,8.39,overcast clouds
642,Kiama,AU,-34.6833,150.8667,70,51,29,9.26,scattered clouds
643,Great Yarmouth,GB,52.6083,1.7305,54.23,78,82,15.86,broken clouds
644,Yinchuan,CN,38.4681,106.2731,57.78,35,36,1.28,scattered clouds
645,Zarubino,RU,42.63,131.0922,57.29,38,0,8.66,clear sky
646,Issenye,TZ,-2,34.3333,73.24,56,89,5.35,overcast clouds
647,Wajir,KE,1.7471,40.0573,79.3,61,33,12.12,scattered clouds
648,Rankovce,MK,42.1696,22.1162,48.99,79,100,6.64,overcast clouds
649,Mildura,AU,-34.2,142.15,70.07,33,4,12.15,clear sky
650,Mackenzie,CA,55.2999,-123.1698,39.42,93,90,2.3,overcast clouds
651,Thinadhoo,MV,0.5333,72.9333,83.44,71,59,13.42,broken clouds
652,Jamalpur,BD,24.9167,89.9333,81.86,62,8,0.74,clear sky
653,Lewiston,US,44.1003,-70.2148,43.39,86,1,0,clear sky
654,Ayan,RU,56.45,138.1667,41.77,57,90,6.2,overcast clouds
655,Ternate,ID,0.8,127.4,84.31,70,98,4.36,overcast clouds
656,Srikakulam,IN,18.3,83.9,83.39,57,63,4.81,broken clouds
657,Tiznit,MA,29.5833,-9.5,61.52,59,29,1.79,scattered clouds
658,Samoded,RU,63.6083,40.5111,25.72,93,100,3.58,light snow
659,Yaguajay,CU,22.3272,-79.2378,76.53,85,80,2.13,broken clouds
660,Ewa Beach,US,21.3156,-158.0072,78.75,62,1,8.99,clear sky
661,Hobyo,SO,5.3505,48.5268,81.32,72,10,10.65,clear sky
662,Ashtian,IR,34.5217,50.0019,41.67,27,21,9.13,few clouds
663,Harper,LR,4.375,-7.7169,76.87,88,77,5.44,broken clouds
664,Cabedelo,BR,-6.9811,-34.8339,79.47,75,30,11.32,scattered clouds
665,Adre,TD,13.4667,22.2,73.87,28,7,9.64,clear sky
666,Berbera,SO,10.4396,45.0143,83.66,55,6,3.44,clear sky
667,Santa Maria,BR,-29.6842,-53.8069,57.92,97,86,8.01,overcast clouds
668,Maracaibo,VE,10.6317,-71.6406,79.61,82,61,6.96,broken clouds
669,Lumberton,US,34.6182,-79.0086,55.49,59,0,3.49,clear sky
670,Naze,JP,28.3667,129.4833,72.52,63,99,19.71,overcast clouds
671,Tak,TH,16.5833,98.8333,78.51,65,92,3.22,overcast clouds
672,Komsomolskiy,UZ,40.4272,71.7189,56.12,28,0,2.3,clear sky
673,Jawhar,SO,2.7809,45.5005,82.06,67,3,10.2,clear sky
674,Itoman,JP,26.1247,127.6694,80.98,59,40,9.22,scattered clouds
675,Rio Gallegos,AR,-51.6226,-69.2181,39.25,60,0,18.41,clear sky
676,Koksovyy,RU,48.1967,40.5989,45.09,63,74,5.23,broken clouds
677,Tarko-Sale,RU,64.9225,77.785,32.74,96,73,15.32,broken clouds
678,Simpang,ID,-1.2667,104.0833,91.67,54,73,3.62,broken clouds
679,Yauya,PE,-8.9833,-77.3,50.2,84,16,3.27,few clouds
680,Inuvik,CA,68.3499,-133.7218,29.26,86,75,4.61,broken clouds
681,Emba,KZ,48.8264,58.1442,48.51,33,22,14.61,few clouds
682,Kihei,US,20.785,-156.4656,76.84,70,1,14.97,clear sky
683,Guacimo,CR,10.2104,-83.6807,77.58,96,44,2.98,scattered clouds
684,Nabire,ID,-3.3667,135.4833,82.44,77,93,2.59,overcast clouds
685,Mpulungu,ZM,-8.7623,31.1141,82.49,45,95,1.7,overcast clouds
686,Marsh Harbour,BS,26.5412,-77.0636,80.38,74,67,12.15,broken clouds
687,Baiyin,CN,36.5583,104.2081,56.28,48,99,3,overcast clouds
688,Gracac,HR,44.3006,15.8547,47.39,89,8,10.16,clear sky
689,Urusha,RU,54.05,122.9,43.86,57,66,4.45,broken clouds
690,Vodnyy,RU,63.5046,53.4095,26.1,89,53,3.11,broken clouds
691,Chernyshevskiy,RU,63.0128,112.4714,29.93,93,93,10.87,light snow
692,Alta Floresta,BR,-9.8756,-56.0861,72,88,20,2.82,few clouds
693,Alexandria,EG,31.2156,29.9553,70.48,69,2,4.76,clear sky
694,Totness,SR,5.8833,-56.3167,77.58,90,99,10.4,overcast clouds
695,Coari,BR,-4.085,-63.1414,77.4,80,56,2.35,broken clouds
696,Kismayo,SO,-0.3582,42.5454,80.96,72,10,12.15,clear sky
697,Korla,CN,41.7597,86.1469,54.9,30,34,4.65,scattered clouds
698,Iberia,US,29.9502,-91.7507,75.2,88,1,8.05,clear sky
699,Porto Santo,PT,33.072,-16.3415,70.18,60,75,10.36,broken clouds
700,Porto Novo,BJ,6.4965,2.6036,76.82,94,99,2.73,light rain
701,Kita,ML,13.0349,-9.4895,73.2,90,72,2.17,broken clouds
702,Springdale,US,36.1867,-94.1288,71.78,82,1,5.01,clear sky
703,Portoferraio,IT,42.8115,10.3146,62.11,82,0,10.36,clear sky
704,Ous,RU,60.9058,61.5186,35.15,83,96,2.68,overcast clouds
